[{"id": "tH3yxO4gKjw6CiR8-s5Zag", "alias": "jollof-haus-west-african-flavors-allen", "name": "Jollof Haus - West African Flavors", "image_url": "https://s3-media4.fl.yelpcdn.com/bphoto/8R8VHd_cAv_SMX5QAbV94A/o.jpg", "is_closed": false, "url": "https://www.yelp.com/biz/jollof-haus-west-african-flavors-allen?adjust_creative=5zDsXIkleY7-y74cONrloQ&utm_campaign=yelp_api_v3&utm_medium=api_v3_business_search&utm_source=5zDsXIkleY7-y74cONrloQ", "review_count": 2, "categories": [{"alias": "african", "title": "African"}], "rating": 4.5, "coordinates": {"latitude": 33.12915364706694, "longitude": -96.67462315410376}, "transactions": [], "location": {"address1": "945 W Stacy Rd", "address2": "Ste 130", "address3": null, "city": "Allen", "zip_code": "75013", "country": "US", "state": "TX", "display_address": ["945 W Stacy Rd", "Ste 130", "Allen, TX 75013"]}, "phone": "+19723328185", "display_phone": "(972) 332-8185", "distance": 34330.08788488005}, {"id": "kLUilzZ0knRWfi2sGPw5wA", "alias": "fusion-vibes-kitchen-bar-richardson", "name": "Fusion Vibes Kitchen + Bar", "image_url": "https://s3-media2.fl.yelpcdn.com/bphoto/8TTdBszlq3-zShIcZBIOgw/o.jpg", "is_closed": false, "url": "https://www.yelp.com/biz/fusion-vibes-kitchen-bar-richardson?adjust_creative=5zDsXIkleY7-y74cONrloQ&utm_campaign=yelp_api_v3&utm_medium=api_v3_business_search&utm_source=5zDsXIkleY7-y74cONrloQ", "review_count": 80, "categories": [{"alias": "african", "title": "African"}, {"alias": "burgers", "title": "Burgers"}, {"alias": "chicken_wings", "title": "Chicken Wings"}], "rating": 4.0, "coordinates": {"latitude": 32.94914411061217, "longitude": -96.73646923222282}, "transactions": ["pickup", "delivery"], "location": {"address1": "100 S Central Expy", "address2": "Ste 50", "address3": "Richardson Heights Village", "city": "Richardson", "zip_code": "75080", "country": "US", "state": "TX", "display_address": ["100 S Central Expy", "Ste 50", "Richardson Heights Village", "Richardson, TX 75080"]}, "phone": "+19725433888", "display_phone": "(972) 543-3888", "distance": 13625.87066970254}, {"id": "fAlx1qzwsrMwERyIHLpi-g", "alias": "west-african-way-plano", "name": "West African Way", "image_url": "https://s3-media4.fl.yelpcdn.com/bphoto/bN6rGC0VfAueKtR-7qYabQ/o.jpg", "is_closed": false, "url": "https://www.yelp.com/biz/west-african-way-plano?adjust_creative=5zDsXIkleY7-y74cONrloQ&utm_campaign=yelp_api_v3&utm_medium=api_v3_business_search&utm_source=5zDsXIkleY7-y74cONrloQ", "review_count": 22, "categories": [{"alias": "african", "title": "African"}], "rating": 4.5, "coordinates": {"latitude": 33.01918, "longitude": -96.68258}, "transactions": ["delivery"], "location": {"address1": "1405 Jupiter Rd", "address2": "Ste 116", "address3": null, "city": "Plano", "zip_code": "75074", "country": "US", "state": "TX", "display_address": ["1405 Jupiter Rd", "Ste 116", "Plano, TX 75074"]}, "phone": "+19724242634", "display_phone": "(972) 424-2634", "distance": 22702.049566930265}, {"id": "4deZdnP0xsgpEVSsUxTRmA", "alias": "yemsade-restaurant-grand-prairie", "name": "Yemsade Restaurant", "image_url": "https://s3-media2.fl.yelpcdn.com/bphoto/gQ84SIhIs6DpYmXW-uOggg/o.jpg", "is_closed": false, "url": "https://www.yelp.com/biz/yemsade-restaurant-grand-prairie?adjust_creative=5zDsXIkleY7-y74cONrloQ&utm_campaign=yelp_api_v3&utm_medium=api_v3_business_search&utm_source=5zDsXIkleY7-y74cONrloQ", "review_count": 53, "categories": [{"alias": "african", "title": "African"}], "rating": 4.0, "coordinates": {"latitude": 32.6987457, "longitude": -97.0153885}, "transactions": ["pickup", "delivery"], "price": "$$", "location": {"address1": "3007 S Carrier Pkwy", "address2": null, "address3": "", "city": "Grand Prairie", "zip_code": "75052", "country": "US", "state": "TX", "display_address": ["3007 S Carrier Pkwy", "Grand Prairie, TX 75052"]}, "phone": "+19722642111", "display_phone": "(972) 264-2111", "distance": 25384.301750050025}, {"id": "2TLj2Se-p8yZ6x28sZ3uow", "alias": "afrika-fusion-dallas-5", "name": "Afrika Fusion", "image_url": "https://s3-media1.fl.yelpcdn.com/bphoto/iofVaMGU4VurjBKdGfRvtQ/o.jpg", "is_closed": false, "url": "https://www.yelp.com/biz/afrika-fusion-dallas-5?adjust_creative=5zDsXIkleY7-y74cONrloQ&utm_campaign=yelp_api_v3&utm_medium=api_v3_business_search&utm_source=5zDsXIkleY7-y74cONrloQ", "review_count": 107, "categories": [{"alias": "african", "title": "African"}, {"alias": "cocktailbars", "title": "Cocktail Bars"}], "rating": 3.0, "coordinates": {"latitude": 33.00635, "longitude": -96.828012}, "transactions": ["pickup", "delivery"], "price": "$$", "location": {"address1": "18900 Dallas Pkwy", "address2": "Ste 125", "address3": "", "city": "Dallas", "zip_code": "75287", "country": "US", "state": "TX", "display_address": ["18900 Dallas Pkwy", "Ste 125", "Dallas, TX 75287"]}, "phone": "+19722489112", "display_phone": "(972) 248-9112", "distance": 18793.342915333084}, {"id": "wyxkS13kG6o2OMijSuSolQ", "alias": "zag-afro-fusion-cuisine-lewisville-2", "name": "Zag Afro Fusion Cuisine", "image_url": "https://s3-media1.fl.yelpcdn.com/bphoto/1bp34hUt7iuaoPmOtnZ_Iw/o.jpg", "is_closed": false, "url": "https://www.yelp.com/biz/zag-afro-fusion-cuisine-lewisville-2?adjust_creative=5zDsXIkleY7-y74cONrloQ&utm_campaign=yelp_api_v3&utm_medium=api_v3_business_search&utm_source=5zDsXIkleY7-y74cONrloQ", "review_count": 15, "categories": [{"alias": "african", "title": "African"}], "rating": 4.0, "coordinates": {"latitude": 33.082402, "longitude": -96.891218}, "transactions": ["delivery"], "location": {"address1": "5000 Main St", "address2": "Ste 214", "address3": "", "city": "Lewisville", "zip_code": "75056", "country": "US", "state": "TX", "display_address": ["5000 Main St", "Ste 214", "Lewisville, TX 75056"]}, "phone": "+19722945570", "display_phone": "(972) 294-5570", "distance": 28351.908073996758}, {"id": "uwmSAH1LF9UfgHud0A8IxA", "alias": "african-village-restaurant-irving", "name": "African Village Restaurant", "image_url": "https://s3-media1.fl.yelpcdn.com/bphoto/kKwndmL2uS9tL1v86ik02g/o.jpg", "is_closed": false, "url": "https://www.yelp.com/biz/african-village-restaurant-irving?adjust_creative=5zDsXIkleY7-y74cONrloQ&utm_campaign=yelp_api_v3&utm_medium=api_v3_business_search&utm_source=5zDsXIkleY7-y74cONrloQ", "review_count": 56, "categories": [{"alias": "african", "title": "African"}], "rating": 3.5, "coordinates": {"latitude": 32.8477813, "longitude": -96.9925349}, "transactions": ["delivery"], "price": "$", "location": {"address1": "3003 N Belt Line Rd", "address2": "", "address3": "", "city": "Irving", "zip_code": "75062", "country": "US", "state": "TX", "display_address": ["3003 N Belt Line Rd", "Irving, TX 75062"]}, "phone": "+19725701111", "display_phone": "(972) 570-1111", "distance": 18069.978464009968}, {"id": "CinPf_89qNgKRH-Dogl--w", "alias": "shuri-dallas-2", "name": "Shuri", "image_url": "https://s3-media3.fl.yelpcdn.com/bphoto/uN4E-mcasxuhHpue-1uTuQ/o.jpg", "is_closed": false, "url": "https://www.yelp.com/biz/shuri-dallas-2?adjust_creative=5zDsXIkleY7-y74cONrloQ&utm_campaign=yelp_api_v3&utm_medium=api_v3_business_search&utm_source=5zDsXIkleY7-y74cONrloQ", "review_count": 29, "categories": [{"alias": "african", "title": "African"}], "rating": 3.0, "coordinates": {"latitude": 32.9233488531959, "longitude": -96.7363055795431}, "transactions": ["delivery"], "price": "$$", "location": {"address1": "9410 Walnut St", "address2": "Ste 115", "address3": "", "city": "Dallas", "zip_code": "75243", "country": "US", "state": "TX", "display_address": ["9410 Walnut St", "Ste 115", "Dallas, TX 75243"]}, "phone": "+19728638820", "display_phone": "(972) 863-8820", "distance": 11128.973083504517}, {"id": "Lua4aK25XZ9pIIlxyUIwbQ", "alias": "aldeez-afribbean-restaurant-dallas", "name": "Aldeez Afribbean Restaurant", "image_url": "https://s3-media4.fl.yelpcdn.com/bphoto/UtbSOfz0kNcee-ezrUS7lQ/o.jpg", "is_closed": false, "url": "https://www.yelp.com/biz/aldeez-afribbean-restaurant-dallas?adjust_creative=5zDsXIkleY7-y74cONrloQ&utm_campaign=yelp_api_v3&utm_medium=api_v3_business_search&utm_source=5zDsXIkleY7-y74cONrloQ", "review_count": 120, "categories": [{"alias": "caribbean", "title": "Caribbean"}, {"alias": "african", "title": "African"}, {"alias": "musicvenues", "title": "Music Venues"}], "rating": 3.5, "coordinates": {"latitude": 33.01006027946732, "longitude": -96.84485726058483}, "transactions": ["delivery"], "price": "$$", "location": {"address1": "3950 Rosemeade Pkwy", "address2": "Ste 100", "address3": "", "city": "Dallas", "zip_code": "75287", "country": "US", "state": "TX", "display_address": ["3950 Rosemeade Pkwy", "Ste 100", "Dallas, TX 75287"]}, "phone": "+12147316590", "display_phone": "(214) 731-6590", "distance": 19460.905670901062}, {"id": "oJfALNsa6HDHtaEXqJ6UnQ", "alias": "lolas-restaurant-and-lounge-irving", "name": "Lolas Restaurant and Lounge", "image_url": "https://s3-media3.fl.yelpcdn.com/bphoto/pbaPtk8A2dwaNSSP4IGNMA/o.jpg", "is_closed": false, "url": "https://www.yelp.com/biz/lolas-restaurant-and-lounge-irving?adjust_creative=5zDsXIkleY7-y74cONrloQ&utm_campaign=yelp_api_v3&utm_medium=api_v3_business_search&utm_source=5zDsXIkleY7-y74cONrloQ", "review_count": 54, "categories": [{"alias": "african", "title": "African"}], "rating": 3.5, "coordinates": {"latitude": 32.8533185, "longitude": -96.9939512}, "transactions": [], "price": "$$", "location": {"address1": "3435 N Beltline Rd", "address2": "", "address3": "", "city": "Irving", "zip_code": "75062", "country": "US", "state": "TX", "display_address": ["3435 N Beltline Rd", "Irving, TX 75062"]}, "phone": "+19725945000", "display_phone": "(972) 594-5000", "distance": 18137.95460676828}, {"id": "pJ65gfA9CM4MUStPQMAF5A", "alias": "kemis-kitchen-grand-prairie", "name": "Kemi's Kitchen", "image_url": "https://s3-media1.fl.yelpcdn.com/bphoto/4YayAzPthrBzs-svPxU58A/o.jpg", "is_closed": false, "url": "https://www.yelp.com/biz/kemis-kitchen-grand-prairie?adjust_creative=5zDsXIkleY7-y74cONrloQ&utm_campaign=yelp_api_v3&utm_medium=api_v3_business_search&utm_source=5zDsXIkleY7-y74cONrloQ", "review_count": 57, "categories": [{"alias": "catering", "title": "Caterers"}, {"alias": "african", "title": "African"}], "rating": 4.0, "coordinates": {"latitude": 32.71007, "longitude": -97.021757}, "transactions": ["pickup", "delivery"], "price": "$$", "location": {"address1": "1102 W Pioneer Pkwy", "address2": "", "address3": "", "city": "Grand Prairie", "zip_code": "75051", "country": "US", "state": "TX", "display_address": ["1102 W Pioneer Pkwy", "Grand Prairie, TX 75051"]}, "phone": "+19726417300", "display_phone": "(972) 641-7300", "distance": 25168.2068660372}, {"id": "1dpa6czBHs2PWXjmaQGTPA", "alias": "monrovia-lounge-dallas", "name": "Monrovia Lounge", "image_url": "https://s3-media2.fl.yelpcdn.com/bphoto/F7WmSxhWhoSZoP0uQ9rcSg/o.jpg", "is_closed": false, "url": "https://www.yelp.com/biz/monrovia-lounge-dallas?adjust_creative=5zDsXIkleY7-y74cONrloQ&utm_campaign=yelp_api_v3&utm_medium=api_v3_business_search&utm_source=5zDsXIkleY7-y74cONrloQ", "review_count": 7, "categories": [{"alias": "lounges", "title": "Lounges"}, {"alias": "african", "title": "African"}, {"alias": "cajun", "title": "Cajun/Creole"}], "rating": 4.0, "coordinates": {"latitude": 32.902369, "longitude": -96.714274}, "transactions": ["pickup", "delivery"], "location": {"address1": "9220 Skillman St", "address2": null, "address3": null, "city": "Dallas", "zip_code": "75243", "country": "US", "state": "TX", "display_address": ["9220 Skillman St", "Dallas, TX 75243"]}, "phone": "+12142387985", "display_phone": "(214) 238-7985", "distance": 10699.827153891227}, {"id": "KhHW-MojqzvlFGeuQrEdZg", "alias": "salt-n-pepper-kitchen-garland-2", "name": "Salt N pepper Kitchen", "image_url": "https://s3-media4.fl.yelpcdn.com/bphoto/9l2IwRRWOpdNl78slFWW4w/o.jpg", "is_closed": false, "url": "https://www.yelp.com/biz/salt-n-pepper-kitchen-garland-2?adjust_creative=5zDsXIkleY7-y74cONrloQ&utm_campaign=yelp_api_v3&utm_medium=api_v3_business_search&utm_source=5zDsXIkleY7-y74cONrloQ", "review_count": 25, "categories": [{"alias": "african", "title": "African"}, {"alias": "seafood", "title": "Seafood"}], "rating": 3.5, "coordinates": {"latitude": 32.93584, "longitude": -96.62328}, "transactions": ["pickup", "delivery"], "location": {"address1": "2376 Lavon Dr", "address2": "106A", "address3": "", "city": "Garland", "zip_code": "75040", "country": "US", "state": "TX", "display_address": ["2376 Lavon Dr", "106A", "Garland, TX 75040"]}, "phone": "+14692982540", "display_phone": "(469) 298-2540", "distance": 19765.688176069005}, {"id": "mzWSR6EZxoBV-goClWf67w", "alias": "exotic-grill-african-cuisine-euless", "name": "Exotic Grill African Cuisine", "image_url": "https://s3-media1.fl.yelpcdn.com/bphoto/Sueu8AOm10j-KNzjGtPQOg/o.jpg", "is_closed": false, "url": "https://www.yelp.com/biz/exotic-grill-african-cuisine-euless?adjust_creative=5zDsXIkleY7-y74cONrloQ&utm_campaign=yelp_api_v3&utm_medium=api_v3_business_search&utm_source=5zDsXIkleY7-y74cONrloQ", "review_count": 52, "categories": [{"alias": "african", "title": "African"}], "rating": 4.5, "coordinates": {"latitude": 32.84317, "longitude": -97.08321}, "transactions": ["delivery"], "price": "$$", "location": {"address1": "415 N Main St", "address2": null, "address3": "", "city": "Euless", "zip_code": "76039", "country": "US", "state": "TX", "display_address": ["415 N Main St", "Euless, TX 76039"]}, "phone": "+18178576861", "display_phone": "(817) 857-6861", "distance": 26414.96079370649}, {"id": "X9ZzYg0dCf4dnGAuE6LXtw", "alias": "mama-bs-international-kitchen-grand-prairie", "name": "Mama B's International Kitchen", "image_url": "https://s3-media2.fl.yelpcdn.com/bphoto/QF18jSCPh59LP8SpwCaFWA/o.jpg", "is_closed": false, "url": "https://www.yelp.com/biz/mama-bs-international-kitchen-grand-prairie?adjust_creative=5zDsXIkleY7-y74cONrloQ&utm_campaign=yelp_api_v3&utm_medium=api_v3_business_search&utm_source=5zDsXIkleY7-y74cONrloQ", "review_count": 24, "categories": [{"alias": "african", "title": "African"}], "rating": 3.5, "coordinates": {"latitude": 32.6943733483255, "longitude": -97.0607004622355}, "transactions": ["pickup", "delivery"], "price": "$$", "location": {"address1": "2985 Watson Rd", "address2": "", "address3": "", "city": "Grand Prairie", "zip_code": "75052", "country": "US", "state": "TX", "display_address": ["2985 Watson Rd", "Grand Prairie, TX 75052"]}, "phone": "+14699990607", "display_phone": "(469) 999-0607", "distance": 29163.60912201439}, {"id": "StkePdmLaMTbDrxodqTJPA", "alias": "lagos-kitchen-lewisville", "name": "Lagos kitchen", "image_url": "https://s3-media2.fl.yelpcdn.com/bphoto/lREbBCyPoBzhvwoh3X102w/o.jpg", "is_closed": false, "url": "https://www.yelp.com/biz/lagos-kitchen-lewisville?adjust_creative=5zDsXIkleY7-y74cONrloQ&utm_campaign=yelp_api_v3&utm_medium=api_v3_business_search&utm_source=5zDsXIkleY7-y74cONrloQ", "review_count": 14, "categories": [{"alias": "african", "title": "African"}], "rating": 3.5, "coordinates": {"latitude": 33.04125167, "longitude": -97.02807333}, "transactions": ["pickup", "delivery"], "location": {"address1": "1320 W Main St", "address2": null, "address3": "", "city": "Lewisville", "zip_code": "75067", "country": "US", "state": "TX", "display_address": ["1320 W Main St", "Lewisville, TX 75067"]}, "phone": "+14694515323", "display_phone": "(469) 451-5323", "distance": 30941.835289767845}, {"id": "RbiqYMCV2JDLFTPBzoRQzg", "alias": "golden-hotpot-arlington", "name": "Golden HotPot", "image_url": "https://s3-media3.fl.yelpcdn.com/bphoto/gZ2VrcEFrlbYjihdGOsOVw/o.jpg", "is_closed": false, "url": "https://www.yelp.com/biz/golden-hotpot-arlington?adjust_creative=5zDsXIkleY7-y74cONrloQ&utm_campaign=yelp_api_v3&utm_medium=api_v3_business_search&utm_source=5zDsXIkleY7-y74cONrloQ", "review_count": 7, "categories": [{"alias": "african", "title": "African"}], "rating": 3.5, "coordinates": {"latitude": 32.70696817, "longitude": -97.13281267}, "transactions": ["pickup", "delivery"], "location": {"address1": "1625 W Arkansas Ln", "address2": null, "address3": "", "city": "Arlington", "zip_code": "76013", "country": "US", "state": "TX", "display_address": ["1625 W Arkansas Ln", "Arlington, TX 76013"]}, "phone": "+18175385777", "display_phone": "(817) 538-5777", "distance": 34372.1979909233}, {"id": "c-lvffss1vK-yBiGWaNV0Q", "alias": "amie-s-african-kitchen-and-grill-dallas", "name": "Amie\u2019s African Kitchen and Grill", "image_url": "https://s3-media3.fl.yelpcdn.com/bphoto/ffRJiNOttw2PiV3E71eLOA/o.jpg", "is_closed": false, "url": "https://www.yelp.com/biz/amie-s-african-kitchen-and-grill-dallas?adjust_creative=5zDsXIkleY7-y74cONrloQ&utm_campaign=yelp_api_v3&utm_medium=api_v3_business_search&utm_source=5zDsXIkleY7-y74cONrloQ", "review_count": 2, "categories": [{"alias": "african", "title": "African"}], "rating": 5.0, "coordinates": {"latitude": 32.692655, "longitude": -96.828944}, "transactions": ["pickup", "delivery"], "location": {"address1": "4515 Village Fair Dr", "address2": "Ste E4", "address3": "", "city": "Dallas", "zip_code": "75224", "country": "US", "state": "TX", "display_address": ["4515 Village Fair Dr", "Ste E4", "Dallas, TX 75224"]}, "phone": "+12148756668", "display_phone": "(214) 875-6668", "distance": 16622.575811937793}, {"id": "2sIbI-R9eGkVlv9PR2pdpQ", "alias": "aggies-african-restaurant-dallas", "name": "Aggie's African Restaurant", "image_url": "https://s3-media4.fl.yelpcdn.com/bphoto/fePzUeZ0_EdNYb-c-E74tA/o.jpg", "is_closed": false, "url": "https://www.yelp.com/biz/aggies-african-restaurant-dallas?adjust_creative=5zDsXIkleY7-y74cONrloQ&utm_campaign=yelp_api_v3&utm_medium=api_v3_business_search&utm_source=5zDsXIkleY7-y74cONrloQ", "review_count": 55, "categories": [{"alias": "african", "title": "African"}], "rating": 2.5, "coordinates": {"latitude": 32.904138, "longitude": -96.717225}, "transactions": ["delivery"], "price": "$$", "location": {"address1": "9205 Skillman St", "address2": "Ste 134", "address3": "", "city": "Dallas", "zip_code": "75243", "country": "US", "state": "TX", "display_address": ["9205 Skillman St", "Ste 134", "Dallas, TX 75243"]}, "phone": "+12142217276", "display_phone": "(214) 221-7276", "distance": 10626.818132488286}, {"id": "Wk7bGwKecyYwdh1e9JpIUg", "alias": "calabar-pot-frisco", "name": "Calabar Pot", "image_url": "https://s3-media3.fl.yelpcdn.com/bphoto/yA4QExaO2OdHRWuBRrATAQ/o.jpg", "is_closed": false, "url": "https://www.yelp.com/biz/calabar-pot-frisco?adjust_creative=5zDsXIkleY7-y74cONrloQ&utm_campaign=yelp_api_v3&utm_medium=api_v3_business_search&utm_source=5zDsXIkleY7-y74cONrloQ", "review_count": 21, "categories": [{"alias": "african", "title": "African"}], "rating": 3.0, "coordinates": {"latitude": 33.12783437424641, "longitude": -96.80565117835387}, "transactions": ["pickup", "delivery"], "location": {"address1": "5995 Preston Rd", "address2": "Ste 102", "address3": "", "city": "Frisco", "zip_code": "75034", "country": "US", "state": "TX", "display_address": ["5995 Preston Rd", "Ste 102", "Frisco, TX 75034"]}, "phone": "+19729875316", "display_phone": "(972) 987-5316", "distance": 32115.58903390298}, {"id": "yRhP-3mbSG1j8dy9gdOLmw", "alias": "suyastop-grand-prairie", "name": "Suyastop", "image_url": "https://s3-media1.fl.yelpcdn.com/bphoto/YdNdlhx2UFoqn0-gJxpY2Q/o.jpg", "is_closed": false, "url": "https://www.yelp.com/biz/suyastop-grand-prairie?adjust_creative=5zDsXIkleY7-y74cONrloQ&utm_campaign=yelp_api_v3&utm_medium=api_v3_business_search&utm_source=5zDsXIkleY7-y74cONrloQ", "review_count": 32, "categories": [{"alias": "african", "title": "African"}], "rating": 4.5, "coordinates": {"latitude": 32.7082695, "longitude": -97.0015916}, "transactions": ["pickup", "delivery"], "price": "$", "location": {"address1": "311 E Pioneer Pkwy", "address2": "Ste B", "address3": "", "city": "Grand Prairie", "zip_code": "75051", "country": "US", "state": "TX", "display_address": ["311 E Pioneer Pkwy", "Ste B", "Grand Prairie, TX 75051"]}, "phone": "+18179669808", "display_phone": "(817) 966-9808", "distance": 23765.431875902705}, {"id": "eAQD4Tqutvt15RpNyV_RZw", "alias": "murphys-mansion-dallas", "name": "Murphy's Mansion", "image_url": "https://s3-media3.fl.yelpcdn.com/bphoto/FR5kCAJX5_-ajN7vrWj1kA/o.jpg", "is_closed": false, "url": "https://www.yelp.com/biz/murphys-mansion-dallas?adjust_creative=5zDsXIkleY7-y74cONrloQ&utm_campaign=yelp_api_v3&utm_medium=api_v3_business_search&utm_source=5zDsXIkleY7-y74cONrloQ", "review_count": 59, "categories": [{"alias": "lounges", "title": "Lounges"}, {"alias": "african", "title": "African"}, {"alias": "musicvenues", "title": "Music Venues"}], "rating": 2.5, "coordinates": {"latitude": 32.9005484282793, "longitude": -96.7202533333321}, "transactions": ["delivery"], "price": "$$", "location": {"address1": "10051 Whitehurst Dr", "address2": "", "address3": null, "city": "Dallas", "zip_code": "75243", "country": "US", "state": "TX", "display_address": ["10051 Whitehurst Dr", "Dallas, TX 75243"]}, "phone": "+12145030446", "display_phone": "(214) 503-0446", "distance": 10148.482522106175}, {"id": "c5-1aniMfpQc-jYpahkJ2A", "alias": "edylicious-desoto", "name": "Edylicious", "image_url": "https://s3-media1.fl.yelpcdn.com/bphoto/_4FYjvY3pJKPN-MWkQMkYw/o.jpg", "is_closed": false, "url": "https://www.yelp.com/biz/edylicious-desoto?adjust_creative=5zDsXIkleY7-y74cONrloQ&utm_campaign=yelp_api_v3&utm_medium=api_v3_business_search&utm_source=5zDsXIkleY7-y74cONrloQ", "review_count": 1, "categories": [{"alias": "african", "title": "African"}, {"alias": "sandwiches", "title": "Sandwiches"}, {"alias": "desserts", "title": "Desserts"}], "rating": 5.0, "coordinates": {"latitude": 32.588788, "longitude": -96.851777}, "transactions": [], "location": {"address1": "324 E Belt Line Rd", "address2": "", "address3": "", "city": "Desoto", "zip_code": "75115", "country": "US", "state": "TX", "display_address": ["324 E Belt Line Rd", "Desoto, TX 75115"]}, "phone": "+19722741261", "display_phone": "(972) 274-1261", "distance": 28237.013643898023}, {"id": "XJ-nrwo-HFBTZxAaiqzvgA", "alias": "angie-winners-kitchen-grand-prairie-2", "name": "Angie Winners Kitchen", "image_url": "https://s3-media1.fl.yelpcdn.com/bphoto/9-0Ug3BDblt8SAobxjeGOg/o.jpg", "is_closed": false, "url": "https://www.yelp.com/biz/angie-winners-kitchen-grand-prairie-2?adjust_creative=5zDsXIkleY7-y74cONrloQ&utm_campaign=yelp_api_v3&utm_medium=api_v3_business_search&utm_source=5zDsXIkleY7-y74cONrloQ", "review_count": 32, "categories": [{"alias": "african", "title": "African"}], "rating": 4.0, "coordinates": {"latitude": 32.7058044, "longitude": -97.05963059999999}, "transactions": ["pickup", "delivery"], "location": {"address1": "2905 E Arkansas Ln", "address2": "Ste 100", "address3": "", "city": "Grand Prairie", "zip_code": "75052", "country": "US", "state": "TX", "display_address": ["2905 E Arkansas Ln", "Ste 100", "Grand Prairie, TX 75052"]}, "phone": "+19728546161", "display_phone": "(972) 854-6161", "distance": 28395.515085063435}, {"id": "nk8kWc4FwMpbgTkH4fX33A", "alias": "chriscos-catering-and-african-restaurant-grand-prairie", "name": "Chrisco's Catering & African Restaurant", "image_url": "https://s3-media3.fl.yelpcdn.com/bphoto/HTSuCBH33yNfvIU-PwaZsw/o.jpg", "is_closed": false, "url": "https://www.yelp.com/biz/chriscos-catering-and-african-restaurant-grand-prairie?adjust_creative=5zDsXIkleY7-y74cONrloQ&utm_campaign=yelp_api_v3&utm_medium=api_v3_business_search&utm_source=5zDsXIkleY7-y74cONrloQ", "review_count": 2, "categories": [{"alias": "african", "title": "African"}, {"alias": "catering", "title": "Caterers"}], "rating": 4.5, "coordinates": {"latitude": 32.69242, "longitude": -97.01739}, "transactions": [], "location": {"address1": "830 Mayfield Rd", "address2": "Ste 340", "address3": null, "city": "Grand Prairie", "zip_code": "75052", "country": "US", "state": "TX", "display_address": ["830 Mayfield Rd", "Ste 340", "Grand Prairie, TX 75052"]}, "phone": "+16825973448", "display_phone": "(682) 597-3448", "distance": 26040.235247594952}, {"id": "7JR7NNV961GywBU1M5HzHw", "alias": "taste-afrik-mansfield", "name": "Taste-Afrik", "image_url": "https://s3-media3.fl.yelpcdn.com/bphoto/1SH-0bg7NPi1r6f7J_lHZw/o.jpg", "is_closed": false, "url": "https://www.yelp.com/biz/taste-afrik-mansfield?adjust_creative=5zDsXIkleY7-y74cONrloQ&utm_campaign=yelp_api_v3&utm_medium=api_v3_business_search&utm_source=5zDsXIkleY7-y74cONrloQ", "review_count": 55, "categories": [{"alias": "african", "title": "African"}], "rating": 3.5, "coordinates": {"latitude": 32.611449, "longitude": -97.1432}, "transactions": ["pickup", "delivery"], "price": "$$", "location": {"address1": "2881 Fm 157", "address2": "Ste 103", "address3": null, "city": "Mansfield", "zip_code": "76063", "country": "US", "state": "TX", "display_address": ["2881 Fm 157", "Ste 103", "Mansfield, TX 76063"]}, "phone": "+16823237609", "display_phone": "(682) 323-7609", "distance": 40852.393586089514}, {"id": "X8KkxnMpqZ7YVkylRBuKRg", "alias": "jollof-xpress-arlington", "name": "Jollof Xpress", "image_url": "https://s3-media1.fl.yelpcdn.com/bphoto/TQZGrlQxxGGEKLk4PZdcVA/o.jpg", "is_closed": false, "url": "https://www.yelp.com/biz/jollof-xpress-arlington?adjust_creative=5zDsXIkleY7-y74cONrloQ&utm_campaign=yelp_api_v3&utm_medium=api_v3_business_search&utm_source=5zDsXIkleY7-y74cONrloQ", "review_count": 1, "categories": [{"alias": "african", "title": "African"}], "rating": 1.0, "coordinates": {"latitude": 32.7848349, "longitude": -97.0968}, "transactions": [], "location": {"address1": "831 NE Green Oaks Blvd", "address2": "", "address3": "African Union Market", "city": "Arlington", "zip_code": "76006", "country": "US", "state": "TX", "display_address": ["831 NE Green Oaks Blvd", "African Union Market", "Arlington, TX 76006"]}, "phone": "+18174229118", "display_phone": "(817) 422-9118", "distance": 28338.88392543927}, {"id": "KaFNK6FzABlNz4qMz5HXWA", "alias": "murphys-place-dallas-dallas", "name": "Murphy's Place Dallas", "image_url": "", "is_closed": false, "url": "https://www.yelp.com/biz/murphys-place-dallas-dallas?adjust_creative=5zDsXIkleY7-y74cONrloQ&utm_campaign=yelp_api_v3&utm_medium=api_v3_business_search&utm_source=5zDsXIkleY7-y74cONrloQ", "review_count": 1, "categories": [], "rating": 4.0, "coordinates": {"latitude": 32.92331, "longitude": -96.7363}, "transactions": [], "location": {"address1": "9410 Walnut St", "address2": null, "address3": null, "city": "Dallas", "zip_code": "75243", "country": "US", "state": "TX", "display_address": ["9410 Walnut St", "Dallas, TX 75243"]}, "phone": "+12145708175", "display_phone": "(214) 570-8175", "distance": 11137.5586549405}, {"id": "t1OFpyRxngMWGNgI293XsQ", "alias": "boxochops-modern-african-plano", "name": "Boxochops Modern African", "image_url": "https://s3-media1.fl.yelpcdn.com/bphoto/1nGPldYfrv_wLADZ8TpDYw/o.jpg", "is_closed": false, "url": "https://www.yelp.com/biz/boxochops-modern-african-plano?adjust_creative=5zDsXIkleY7-y74cONrloQ&utm_campaign=yelp_api_v3&utm_medium=api_v3_business_search&utm_source=5zDsXIkleY7-y74cONrloQ", "review_count": 16, "categories": [{"alias": "african", "title": "African"}], "rating": 4.0, "coordinates": {"latitude": 33.09322, "longitude": -96.79658}, "transactions": ["pickup", "delivery"], "location": {"address1": "8500 Ohio Dr", "address2": "Ste 200", "address3": "", "city": "Plano", "zip_code": "75024", "country": "US", "state": "TX", "display_address": ["8500 Ohio Dr", "Ste 200", "Plano, TX 75024"]}, "phone": "+14698443412", "display_phone": "(469) 844-3412", "distance": 28326.351938524065}, {"id": "r-wecKPD4tVkV8A5JA_rvQ", "alias": "ts-buka-arlington", "name": "Ts Buka", "image_url": "https://s3-media3.fl.yelpcdn.com/bphoto/b8XYm-OY1ReaxH1a1_6FYg/o.jpg", "is_closed": false, "url": "https://www.yelp.com/biz/ts-buka-arlington?adjust_creative=5zDsXIkleY7-y74cONrloQ&utm_campaign=yelp_api_v3&utm_medium=api_v3_business_search&utm_source=5zDsXIkleY7-y74cONrloQ", "review_count": 8, "categories": [{"alias": "african", "title": "African"}], "rating": 3.5, "coordinates": {"latitude": 32.7065663, "longitude": -97.0992583}, "transactions": ["pickup", "delivery"], "location": {"address1": "807 E Arkansas Ln", "address2": null, "address3": null, "city": "Arlington", "zip_code": "76010", "country": "US", "state": "TX", "display_address": ["807 E Arkansas Ln", "Arlington, TX 76010"]}, "phone": "+16822766400", "display_phone": "(682) 276-6400", "distance": 31562.10694939739}, {"id": "qVDMYXQlgFeYqCK_7tn9rg", "alias": "aso-rock-restaurant-and-lounge-dallas", "name": "Aso Rock Restaurant and Lounge", "image_url": "https://s3-media3.fl.yelpcdn.com/bphoto/sMDXs-7uxOnbnC5gM3-FcA/o.jpg", "is_closed": false, "url": "https://www.yelp.com/biz/aso-rock-restaurant-and-lounge-dallas?adjust_creative=5zDsXIkleY7-y74cONrloQ&utm_campaign=yelp_api_v3&utm_medium=api_v3_business_search&utm_source=5zDsXIkleY7-y74cONrloQ", "review_count": 44, "categories": [{"alias": "lounges", "title": "Lounges"}, {"alias": "sportsbars", "title": "Sports Bars"}, {"alias": "african", "title": "African"}], "rating": 2.5, "coordinates": {"latitude": 32.902179, "longitude": -96.714309}, "transactions": ["pickup", "delivery"], "price": "$$", "location": {"address1": "9220 Skillman St", "address2": "Ste 115", "address3": "", "city": "Dallas", "zip_code": "75243", "country": "US", "state": "TX", "display_address": ["9220 Skillman St", "Ste 115", "Dallas, TX 75243"]}, "phone": "+12143431300", "display_phone": "(214) 343-1300", "distance": 10684.692849006833}, {"id": "kV8L7us7CFBU9mjup2TnKw", "alias": "spiced-n-grillz-dallas", "name": "Spiced N Grillz", "image_url": "", "is_closed": false, "url": "https://www.yelp.com/biz/spiced-n-grillz-dallas?adjust_creative=5zDsXIkleY7-y74cONrloQ&utm_campaign=yelp_api_v3&utm_medium=api_v3_business_search&utm_source=5zDsXIkleY7-y74cONrloQ", "review_count": 1, "categories": [{"alias": "fooddeliveryservices", "title": "Food Delivery Services"}, {"alias": "chickenshop", "title": "Chicken Shop"}], "rating": 1.0, "coordinates": {"latitude": 32.64484, "longitude": -96.94971}, "transactions": ["pickup", "delivery"], "location": {"address1": null, "address2": null, "address3": null, "city": "Dallas", "zip_code": "75249", "country": "US", "state": "TX", "display_address": ["Dallas, TX 75249"]}, "phone": "+14697596475", "display_phone": "(469) 759-6475", "distance": 26245.09492649211}]